,City,Country,Lat,Lng,Cloudiness,Date,Humidity,Max Temp,Wind Speed,Hotel Name
0,Broken Hill,AU,-31.95,141.4333,0,1619752241,27,297.15,4.63,Broken Hill
1,Awjilah,LY,29.1081,21.2869,0,1619752269,15,299.14,4.27,Awjilah
2,Korla,CN,41.7597,86.1469,0,1619752274,12,298.58,1.37,Bayingolin Mongol Autonomous Prefecture
3,Olinda,BR,-8.0089,-34.8553,0,1619752299,83,297.15,3.6,Olinda
4,Inhambane,MZ,-23.865,35.3833,0,1619752333,79,295.04,2.38,Maxixe
5,Codrington,AU,-38.2667,141.9667,0,1619752358,36,296.46,4.37,Yambuk
6,Mount Gambier,AU,-37.8333,140.7667,0,1619752385,46,295.15,6.17,Mount Gambier
7,Zhangye,CN,38.9342,100.4517,0,1619752412,15,294.48,0.66,Zhangye
